[{
    "id": "10154750642033650849",
    "name": "大连软件园腾飞园区",
    "address": "辽宁省大连市甘井子区大连软件园腾飞园区(汇贤街南)",
    "short_address": "大连软件园腾飞园区(汇贤街南)",
    "latitude": 38.84722,
    "longitude": 121.51744,
    "city": "大连市",
    "request_id": "13021483164814830718",
    "city_id": 20,
    "geohash": "wwykvpym3wdt",
    "district_id": 5122
  },
  {
    "id": "14774808785932761968",
    "name": "大连软件园腾飞园区1座",
    "address": "辽宁省大连市甘井子区高新园区汇贤园1号",
    "short_address": "高新园区汇贤园1号",
    "latitude": 38.84726,
    "longitude": 121.51373,
    "city": "大连市",
    "request_id": "13021483164814830718",
    "city_id": 20,
    "geohash": "wwykvpgtenhh",
    "district_id": 5122
  },
  {
    "id": "1122457467044800314",
    "name": "大连软件园12号楼",
    "address": "辽宁省大连市沙河口区软件园东路21",
    "short_address": "软件园东路21",
    "latitude": 38.88775,
    "longitude": 121.54506,
    "city": "大连市",
    "request_id": "13021483164814830718",
    "city_id": 20,
    "geohash": "wwymjz63t4j8",
    "district_id": 5121
  },
  {
    "id": "14419772552112809134",
    "name": "大连软件园24号楼",
    "address": "辽宁省大连市沙河口区软件园东路40",
    "short_address": "软件园东路40",
    "latitude": 38.88984,
    "longitude": 121.5465,
    "city": "大连市",
    "request_id": "13021483164814830718",
    "city_id": 20,
    "geohash": "wwymjzemwxx7",
    "district_id": 5121
  },
  {
    "id": "17067385045421901845",
    "name": "大连软件园腾飞园区2座",
    "address": "辽宁省大连市甘井子区高新园区汇贤园1号",
    "short_address": "高新园区汇贤园1号",
    "latitude": 38.84701,
    "longitude": 121.51093,
    "city": "大连市",
    "request_id": "13021483164814830718",
    "city_id": 20,
    "geohash": "wwykvpcs1zs2",
    "district_id": 5122
  },
  {
    "id": "7121509419091910850",
    "name": "大连软件园17号楼",
    "address": "辽宁省大连市沙河口区大连软件园17栋",
    "short_address": "大连软件园17栋",
    "latitude": 38.88732,
    "longitude": 121.54854,
    "city": "大连市",
    "request_id": "13021483164814830718",
    "city_id": 20,
    "geohash": "wwymjzhzn3b7",
    "district_id": 5121
  },
  {
    "id": "867783912036791817",
    "name": "大连软件园GE大厦",
    "address": "辽宁省大连市沙河口区软件园东路",
    "short_address": "软件园东路",
    "latitude": 38.88747,
    "longitude": 121.54399,
    "city": "大连市",
    "request_id": "13021483164814830718",
    "city_id": 20,
    "geohash": "wwymjz1xujzd",
    "district_id": 5121
  },
  {
    "id": "4248777622972775857",
    "name": "大连软件园东软园区",
    "address": "辽宁省大连市沙河口区软件园东路4号附近",
    "short_address": "软件园东路4号附近",
    "latitude": 38.88885,
    "longitude": 121.5416,
    "city": "大连市",
    "request_id": "13021483164814830718",
    "city_id": 20,
    "geohash": "wwymjxrzux1d",
    "district_id": 5121
  },
  {
    "id": "37022828161399690",
    "name": "大连软件园16号楼",
    "address": "辽宁省大连市沙河口区大连软件园16栋",
    "short_address": "大连软件园16栋",
    "latitude": 38.88656,
    "longitude": 121.54775,
    "city": "大连市",
    "request_id": "13021483164814830718",
    "city_id": 20,
    "geohash": "wwymjzh6eu5m",
    "district_id": 5121
  },
  {
    "id": "778041331677865704",
    "name": "大连软件园22号楼",
    "address": "辽宁省大连市沙河口区大连软件园22栋",
    "short_address": "大连软件园22栋",
    "latitude": 38.88849,
    "longitude": 121.54471,
    "city": "大连市",
    "request_id": "13021483164814830718",
    "city_id": 20,
    "geohash": "wwymjz6jv5bw",
    "district_id": 5121
  }]